1,¿Capital?,¿CFE?,Nombre,Lat,Lon,ID,poblacion,Grupo
1,0,1,Acapulco de Juárez,16.83546,-99.82789,3629,673479,41
1,0,1,Acayucan,17.95111,-94.91319,3437,50934,38
1,0,1,Agua Prieta,31.31033,-109.55041,3498,77254,2
1,1,1,Aguascalientes,21.88319,-102.2913,3635,722250,14
1,0,1,Altamira,22.40796,-97.91769,3461,59536,32
1,0,0,Navolato,24.75728,-107.70298,3315,29153,4
1,0,0,Atlacomulco de Fabela,19.79802,-99.87554,3209,22774,43
1,0,0,Santa María Huatulco,15.83163,-96.32065,2437,7409,45
1,0,0,Bahía de Kino,28.84434,-111.97145,2148,6050,2
1,0,0,Barra de Navidad,19.20604,-104.67898,1562,4324,37
1,0,1,Heroica Caborca,30.7236,-112.16443,3462,59922,2
1,0,1,Cabo San Lucas,22.89959,-109.93283,3482,68463,4
1,0,1,Cadereyta de Montes,20.69195,-99.82131,2938,13347,12
1,0,1,Ciudad Camargo,26.31958,-98.83573,2503,7984,31
1,1,1,San Francisco de Campeche,19.83444,-90.52734,3572,220389,5
1,0,1,Heroica Ciudad de Cananea,30.98843,-110.28474,3339,31560,2
1,0,1,Cancún,21.1214,-86.85588,3627,628306,1
1,0,1,Celaya,20.52855,-100.81709,3594,340387,47
1,0,1,Ciudad Acuña,29.32265,-100.97036,3544,134233,42
1,0,1,Ciudad Constitución,25.04826,-111.67714,3402,40935,3
1,0,0,Cd. Cuauhtémoc,22.1842,-97.83245,2695,9740,32
1,0,1,Ciudad del Carmen,18.65045,-91.7984,3560,169466,33
1,0,1,Ciudad Guzmán,19.70303,-103.46802,3517,97750,37
1,0,1,Ciudad Hidalgo,14.67802,-92.15528,3003,14606,17
1,0,1,Juárez,17.60627,-93.18675,2423,7286,36
1,0,0,Ciudad Mante,22.73087,-98.98357,3506,84787,32
1,0,1,Ciudad Obregón,27.48228,-109.94289,3588,298625,3
1,0,1,Ciudad Valles,21.98859,-99.0155,3540,124644,16
1,1,1,Ciudad Victoria,23.741,-99.14332,3590,305155,32
1,0,1,Coatzacoalcos,18.13422,-94.46303,3573,235983,38
1,0,0,Choix,26.71026,-108.32814,2657,9306,4
1,1,1,Colima,19.2418,-103.72861,3545,137383,37
1,0,0,Comitán de Domínguez,16.22773,-92.13036,3516,97537,13
1,0,1,Córdoba,18.89017,-96.94009,3547,140896,50
1,0,1,Cuautla,18.83407,-98.9345,3553,154358,6
1,0,0,Cuencamé de Ceniceros,24.8677,-103.69844,2705,9848,29
1,1,1,Cuernavaca,18.93188,-99.24057,3593,338650,6
1,1,1,Culiacán Rosales,24.80522,-107.42297,3631,675773,4
1,0,0,Champotón,19.34441,-90.72388,3334,30881,5
1,1,1,Chetumal,18.52216,-88.30478,3551,151243,5
1,1,1,Chilpancingo de los Bravo,17.54773,-99.49969,3563,187251,41
1,1,1,Chihuahua,28.67113,-106.10523,3640,809232,15
1,0,1,Delicias,28.18616,-105.46341,3532,118071,15
1,1,1,Victoria de Durango,24.02273,-104.64828,3616,518709,29
1,0,1,Ensenada,31.84087,-116.61008,3585,279765,7
1,0,1,Escárcega,18.6063,-90.74589,3320,29477,5
1,0,1,Fresnillo,23.18293,-102.87289,3536,120944,49
1,0,0,Frontera,18.53302,-92.64565,3210,22795,36
1,1,1,Guadalajara,20.67379,-103.33541,3649,1495182,44
1,0,1,Guamúchil,25.45964,-108.07598,3471,63743,4
1,1,1,Guanajuato,21.02513,-101.2579,3489,72237,28
1,0,0,Guasave,25.57071,-108.4728,3487,71196,4
1,0,1,Heroica Guaymas,27.92728,-110.90792,3528,113082,3
1,0,0,Guerrero Negro,27.96847,-114.03994,2919,13054,21
1,1,1,Hermosillo,29.0814,-110.98899,3634,715061,2
1,0,0,Hidalgo del Parral,26.949,-105.67759,3524,104836,9
1,0,0,Heroica Ciudad de Huajuapan de León,17.8047,-97.7827,3445,53043,35
1,0,0,Huejutla de Reyes,21.13971,-98.4121,3397,40015,16
1,0,0,Irapuato,20.67749,-101.3418,3600,380941,28
1,0,0,Izúcar de Matamoros,18.59806,-98.47266,3412,43006,6
1,0,0,José Mariano Jiménez,27.13146,-104.91445,3361,34281,9
1,0,1,Juchitán,16.62684,-98.63824,918,3346,24
1,0,0,Lagos de Moreno,21.35526,-101.92355,3519,98206,28
1,1,1,La Paz,24.11644,-110.30271,3570,215178,4
1,0,0,La Tinaja,24.11644,-110.30271,3570,215178,4
1,0,1,Lázaro Cárdenas,16.60552,-93.7946,615,3002,13
1,0,1,León de los Aldama,21.12192,-101.66601,3645,1238962,28
1,0,1,Linares,24.86061,-99.55768,3470,63104,31
1,0,1,Loreto,23.84668,-103.00768,217,2637,29
1,0,1,Los Mochis,25.78409,-108.99131,3580,256613,4
1,0,1,Magdalena,20.91243,-103.96828,3071,16214,44
1,0,1,Manzanillo,19.08538,-104.29403,3543,130035,37
1,0,0,Maravatío de Ocampo,19.89344,-100.44394,3362,34381,43
1,0,1,Matamoros,25.5258,-103.23152,3443,52233,9
1,0,0,Matehuala,23.6553,-100.63837,3499,77328,22
1,0,0,Matías Romero Avendaño,16.87308,-95.03128,3148,18944,34
1,0,1,Mazatlán,17.43783,-99.46774,1949,5316,41
1,1,1,Mérida,20.9761,-89.63292,3638,777615,1
1,1,1,Mexicali,32.61331,-115.45029,3632,689775,7
1,1,0,Iztapalapa,19.34285,-99.05017,3651,1815786,26
1,0,1,Minatitlán,19.38778,-104.05328,1689,4588,37
1,0,1,Monclova,26.90779,-101.42667,3571,215271,42
1,1,1,Morelia,19.70365,-101.20612,3622,597511,39
1,0,0,Montemorelos,25.18875,-99.82931,3421,45108,31
1,1,1,Monterrey,25.6488,-100.3031,3642,1135512,31
1,0,1,Nacozari de García,30.37311,-109.68865,2837,11489,2
1,0,1,Navojoa,27.06792,-109.4518,3529,113836,3
1,0,1,Nogales,18.82019,-97.16479,3197,22085,50
1,0,0,Nueva Rosita,27.93365,-101.22195,3388,38158,42
1,0,1,Nuevo Casas Grandes,30.42153,-107.90417,3454,55553,15
1,0,1,Nuevo Laredo,27.45226,-99.54459,3599,373725,42
1,1,1,Oaxaca de Juárez,17.0813,-96.73564,3578,255029,30
1,0,0,Ocosingo,16.90854,-92.09176,3404,41878,33
1,0,1,Ocotlán,19.3116,-98.22225,3199,22248,48
1,0,0,Manuel Ojinaga,29.54533,-104.41302,3208,22744,15
1,0,1,Orizaba,18.85909,-97.09677,3535,120844,50
1,0,0,Palenque,17.52528,-91.98356,3411,42947,33
1,1,0,Pachuca de Soto,20.08466,-98.76332,3579,256584,8
1,0,1,Pedro Escobedo,20.50289,-100.14467,2715,9946,12
1,0,1,Piedras Negras,18.77123,-96.17187,2594,8767,23
1,0,1,Playa del Carmen,20.65479,-87.06788,3549,149923,1
1,0,1,Poza Rica de Hidalgo,20.53432,-97.44458,3562,185242,25
1,0,0,Progreso,32.58916,-115.58076,2896,12557,7
1,0,0,Puerto Escondido,15.87493,-97.07704,3273,25902,45
1,0,1,Puerto Peñasco,31.34217,-113.53448,3456,56756,21
1,0,1,Puerto Vallarta,20.64086,-105.22452,3567,203342,10
1,1,1,Puebla,32.56778,-115.34654,3031,15168,7
1,1,1,Santiago de Querétaro,20.61214,-100.40699,3626,626495,12
1,0,1,Reynosa,26.0354,-98.2962,3621,589466,31
1,0,1,Rioverde,21.92064,-99.9824,3446,53128,22
1,0,0,Rosario,27.84395,-109.37092,436,2815,3
1,0,1,Playas de Rosarito,32.35817,-117.0574,3475,65278,7
1,0,1,Sabinas,27.86591,-101.12908,3452,54905,42
1,0,1,Salina Cruz,16.19652,-95.19678,3494,76596,34
1,1,1,Saltillo,25.43039,-100.98439,3633,709671,31
1,0,0,San Blas,26.07734,-108.76429,2157,6075,4
1,0,0,San Carlos,29.02925,-100.90163,726,3126,42
1,0,0,San Cristóbal de las Casas,16.73203,-92.6424,3554,158027,13
1,0,0,San Felipe,25.69222,-103.38411,1670,4552,9
1,0,0,San Ignacio,23.94253,-106.42477,1666,4543,51
1,0,1,San José del Cabo,23.07623,-109.71506,3484,69788,4
1,0,1,San Juan del Río,20.40342,-99.97347,3546,138878,12
1,0,1,San Luis de la Paz,21.29364,-100.51684,3435,49914,12
1,1,1,San Luis Potosí,22.12398,-100.95106,3636,722772,22
1,0,1,San Luis Río Colorado,32.44574,-114.75872,3555,158089,7
1,0,1,San Martín Texmelucan de Labastida,19.28845,-98.43477,3493,75518,48
1,0,1,San Miguel de Allende,20.91249,-100.74539,3485,69811,12
1,0,1,Santa Ana,29.03003,-107.47319,596,2978,15
1,0,0,Santa Rosalía,27.34125,-112.26883,2855,11765,3
1,0,1,Silao,20.94756,-101.42784,3491,74242,28
1,0,0,Sonoita,31.86672,-112.84353,2910,12849,2
1,0,0,Soto la Marina,23.76819,-98.20483,2778,10620,32
1,0,0,Tamazunchale,21.25697,-98.78409,3248,24562,16
1,0,1,Tampico,22.26624,-97.86949,3587,297284,32
1,0,1,Tamuín,22.0079,-98.77675,3078,16318,16
1,0,1,Tapachula de Córdova y Ordóñez,14.91136,-92.27796,3566,202672,17
1,0,0,Taxco de Alarcón,18.55601,-99.60892,3442,52217,6
1,0,1,Tecate,32.56165,-116.62718,3473,64764,7
1,0,0,Tehuacán,18.461,-97.40762,3576,248716,50
1,0,0,San Pedro Tapanatepec,16.36725,-94.19289,2442,7441,34
1,1,1,Tepic,21.50099,-104.87697,3592,332863,10
1,0,1,Texcoco de Mora,19.50893,-98.88253,3525,105165,26
1,0,1,Ticul,20.3978,-89.53839,3351,32796,1
1,0,1,Tijuana,32.49661,-116.97262,3646,1300983,7
1,1,0,Tlaxcala de Xicohténcatl,19.31654,-98.23731,3006,14692,48
1,1,1,Toluca de Lerdo,19.29411,-99.63121,3615,489333,27
1,0,0,Topolobampo,25.60128,-109.05128,2230,6361,4
1,0,1,Torreón,25.54861,-103.40192,3623,608836,9
1,0,1,Tula de Allende,20.05471,-99.3412,3311,28577,46
1,0,0,Tulancingo,20.09224,-98.36285,3522,102406,8
1,0,0,Tuxpan,19.56246,-100.46155,2644,9122,43
1,0,0,San Juan Bautista Tuxtepec,18.06949,-96.1412,3521,101810,38
1,1,1,Tuxtla Gutiérrez,16.746,-93.13263,3618,537102,13
1,0,1,Uruapan,19.40439,-102.04609,3582,264439,39
1,0,1,Valladolid,20.68838,-88.20293,3432,48973,1
1,0,1,Veracruz,19.1411,-96.1176,3541,126507,23
1,0,0,Miguel Ahumada,30.61858,-106.51342,2571,8575,15
1,1,1,Villahermosa,17.99253,-92.95312,3596,353577,36
1,1,1,Jalapa,17.72113,-92.8125,1839,4999,36
1,0,1,San Juan Yautepec,19.3491,-99.34147,1590,4374,27
1,0,0,Yécora,28.36724,-108.93058,548,2920,3
1,1,1,Zacatecas,22.76321,-102.58868,3542,129011,49
1,0,1,Zamora de Hidalgo,19.99255,-102.28609,3548,141627,40
1,0,0,Zihuatanejo,17.64033,-101.55781,3478,67408,20
1,0,0,Zimapán,20.73944,-99.38053,2928,13243,46
